City_ID,City,Lat,Lng,Max Temp,Humidity,Cloudiness,Wind Speed,Country,Date
0,port alfred,-33.5906,26.891,13.99,91,73,1.67,ZA,1689613730
1,blackmans bay,-43.0167,147.3167,11.07,67,50,4.49,AU,1689613570
2,alaghsas,17.0187,8.0168,40.97,8,11,2.14,NE,1689613849
3,sisimiut,66.9395,-53.6735,6.07,99,100,1.04,GL,1689613664
4,nova sintra,14.8667,-24.7167,22.51,80,40,7.38,CV,1689613609
5,port-aux-francais,-49.35,70.2167,5.96,97,100,16.56,TF,1689613577
6,kavaratti,10.5669,72.642,28.21,80,90,7.77,IN,1689613850
7,san antonio de pale,-1.4014,5.6325,23.44,79,48,5.15,GQ,1689613703
8,sitka,57.0531,-135.33,12.94,88,75,1.54,US,1689613732
9,invercargill,-46.4,168.35,10.52,90,100,7.96,NZ,1689613704
10,waitangi,-43.9535,-176.5597,9.9,89,42,2.24,NZ,1689613571
11,whangarei,-35.7317,174.3239,8.98,98,29,1.51,NZ,1689613851
12,onguday,50.75,86.15,12.76,91,9,0.78,RU,1689613851
13,grytviken,-54.2811,-36.5092,-4.72,86,100,2.33,GS,1689613576
14,tiksi,71.6872,128.8694,10.43,63,99,6.43,RU,1689613593
15,bubaque,11.2833,-15.8333,25.91,87,100,6.27,GW,1689613852
16,longyearbyen,78.2186,15.6401,8.91,57,20,8.75,SJ,1689613593
17,umm ruwaba,12.9061,31.2158,36.69,26,10,2.86,SD,1689613852
18,aykhal,66.0,111.5,7.39,97,100,4.63,RU,1689613308
19,ust-nera,64.5667,143.2,8.66,63,15,1.72,RU,1689613642
20,snyderville,40.6944,-111.5438,33.25,27,97,0.45,US,1689613853
21,bredasdorp,-34.5322,20.0403,13.7,93,79,2.33,ZA,1689613598
22,puerto natales,-51.7236,-72.4875,6.25,52,20,3.6,CL,1689613404
23,howard springs,-12.497,131.047,21.95,46,69,2.54,AU,1689613854
24,trier,49.7557,6.6394,24.97,33,70,6.08,DE,1689613854
25,ilulissat,69.2167,-51.1,6.01,100,75,2.57,GL,1689613583
26,jodhpur,26.2867,73.03,31.74,57,100,7.28,IN,1689613854
27,lebu,-37.6167,-73.65,10.19,56,100,2.16,CL,1689613653
28,shenjiamen,29.9576,122.298,25.97,95,86,4.24,CN,1689613855
29,badger,64.8,-147.5333,18.33,75,40,1.34,US,1689613728
30,san patricio,28.017,-97.5169,35.6,36,11,3.92,US,1689613724
31,taitung city,22.7583,121.1444,27.2,79,100,1.86,TW,1689613856
32,san julian,21.0167,-102.1667,22.49,44,2,2.74,MX,1689613280
33,kapa'a,22.0752,-159.319,27.18,78,40,5.66,US,1689613556
34,edinburgh of the seven seas,-37.0676,-12.3116,13.09,65,11,3.35,SH,1689613598
35,beau vallon,-20.4189,57.6953,22.13,88,75,6.69,MU,1689613857
36,tsiombe,-25.3,45.4833,18.92,79,5,2.26,MG,1689613646
37,carutapera,-1.195,-46.02,29.89,61,7,4.93,BR,1689613781
38,jalalaqsi,3.3766,45.5996,25.18,72,10,9.94,SO,1689613857
39,pizarro,4.9533,-77.366,29.06,73,91,2.43,CO,1689613857
40,wailua homesteads,22.0669,-159.378,26.44,80,40,5.66,US,1689613728
41,katsuura,35.1333,140.3,24.71,88,1,1.41,JP,1689613678
42,luderitz,-26.6481,15.1594,20.35,40,0,2.25,NA,1689613627
43,albany,42.6001,-73.9662,29.41,66,55,0.89,US,1689613284
44,lompoc,34.6391,-120.4579,27.05,73,81,1.34,US,1689613609
45,fort mcmurray,56.7268,-111.381,19.57,54,100,3.22,CA,1689613800
46,hermanus,-34.4187,19.2345,13.78,92,63,3.46,ZA,1689613579
47,naze,28.3667,129.4833,27.51,86,91,6.05,JP,1689613583
48,peniche,39.3558,-9.3811,25.72,76,1,7.32,PT,1689613859
49,quellon,-43.1167,-73.6167,6.14,70,0,2.06,CL,1689613859
50,iqaluit,63.7506,-68.5145,5.85,100,100,5.66,CA,1689613575
51,bangassou,4.7413,22.8184,24.94,71,71,0.72,CF,1689613339
52,morteros,-30.7116,-61.9986,12.23,39,0,3.05,AR,1689613860
53,la passe,45.5549,-0.8967,27.23,47,1,4.74,FR,1689613860
54,hilo,19.7297,-155.09,24.79,77,100,2.68,US,1689613860
55,thompson,55.7435,-97.8558,20.46,49,15,3.62,CA,1689613725
56,iskateley,67.6803,53.1512,18.97,66,68,1.97,RU,1689613585
57,fuyang,32.9,115.8167,23.98,95,7,2.75,CN,1689613861
58,vilkaviskis,54.6517,23.0322,25.27,44,67,4.52,LT,1689613861
59,hobyo,5.3505,48.5268,25.41,81,11,13.15,SO,1689613861
60,buka,40.8108,69.1986,29.38,18,0,1.61,UZ,1689613862
61,ribeira grande,38.5167,-28.7,22.22,68,75,2.57,PT,1689613621
62,bardai,11.65,7.2333,33.4,36,72,2.19,NG,1689613862
63,amga,60.8953,131.9608,10.16,80,64,1.91,RU,1689613274
64,atafu village,-8.5421,-172.5159,28.76,75,100,6.35,TK,1689613614
65,singkil,-7.9855,111.4161,21.34,95,5,1.83,ID,1689613863
66,letlhakane,-21.4167,25.5833,16.74,23,0,4.14,BW,1689613863
67,acarau,-2.8856,-40.12,29.77,60,32,8.59,BR,1689613820
68,hawaiian paradise park,19.5933,-154.9731,23.28,88,100,2.06,US,1689613607
69,stanley,54.868,-1.6985,18.77,63,20,7.2,GB,1689613601
70,valle de la pascua,9.2155,-66.0073,29.49,70,35,3.24,VE,1689613410
71,gerash,27.6652,54.1371,35.25,30,57,2.21,IR,1689613864
72,launceston,-41.45,147.1667,11.0,76,75,8.23,AU,1689613864
73,wamba,8.9333,8.6,29.77,66,47,2.48,NG,1689613864
74,yellowknife,62.456,-114.3525,19.29,59,100,5.14,CA,1689613574
75,annaba,36.9,7.7667,33.98,52,20,6.69,DZ,1689613865
76,adamstown,-25.066,-130.1015,22.05,69,99,6.69,PN,1689613570
77,ukiah,39.1502,-123.2078,33.58,32,0,2.06,US,1689613806
78,cartagena,10.3997,-75.5144,30.79,79,40,4.63,CO,1689613541
79,ponta delgada,37.7333,-25.6667,22.4,60,75,3.09,PT,1689613181
80,uturoa,-16.7333,-151.4333,25.4,68,12,5.23,PF,1689613618
81,pyinmana,19.7333,96.2167,24.47,95,97,1.6,MM,1689613866
82,puerto deseado,-47.7503,-65.8938,5.18,37,1,4.69,AR,1689613866
83,aldinga beach,-35.2793,138.4604,9.26,79,0,5.74,AU,1689613327
84,sarmiento,-45.5882,-69.07,-1.54,74,6,0.82,AR,1689613867
85,chonchi,-42.6128,-73.8092,6.56,54,39,1.21,CL,1689613582
86,nar'yan-mar,67.6713,53.087,19.07,66,67,2.0,RU,1689613867
87,lent'ekhi,42.7856,42.7261,14.56,97,80,0.8,GE,1689613842
88,utrik,11.2278,169.8474,28.03,77,76,4.81,MH,1689613584
89,mazagao,-0.115,-51.2894,31.03,49,9,2.34,BR,1689613301
90,san pablo tecalco,19.6667,-98.95,20.45,42,5,0.93,MX,1689613868
91,margaret river,-33.95,115.0667,14.77,84,98,6.13,AU,1689613625
92,canton,23.1167,113.25,27.15,85,100,7.39,CN,1689613646
93,saipan,15.1355,145.701,27.58,100,20,3.09,MP,1689613595
94,east london,-33.0153,27.9116,18.99,62,58,1.46,ZA,1689613603
95,olonkinbyen,70.9221,-8.7187,4.71,97,100,10.36,SJ,1689613589
96,tuy hoa,13.0833,109.3,27.28,74,96,6.75,VN,1689613870
97,bilopillya,51.1502,34.3129,22.39,56,14,1.13,UA,1689613870
98,bilibino,68.0546,166.4372,19.18,56,51,1.26,RU,1689613589
99,ushuaia,-54.8,-68.3,4.79,87,100,2.12,AR,1689613606
100,jabor,5.921,169.6434,28.08,77,100,4.84,MH,1689613870
101,at taj,24.2049,23.2857,36.67,11,0,4.78,LY,1689613871
102,port macquarie,-31.4333,152.9167,11.05,93,23,1.71,AU,1689613873
103,bamyan,34.75,67.25,14.72,28,0,4.72,AF,1689613873
104,edeia,-17.3383,-49.9314,32.65,25,59,0.16,BR,1689613873
105,whitehorse,60.7161,-135.0538,14.5,93,100,1.03,CA,1689613452
106,west island,-12.1568,96.8225,22.99,83,100,5.14,CC,1689613578
107,tangalle,6.024,80.7911,26.32,87,99,6.0,LK,1689613874
108,kimbe,-5.5502,150.1429,25.24,86,98,2.97,PG,1689613874
109,ha'il,27.5219,41.6907,35.44,9,0,5.9,SA,1689613874
110,murrells inlet,33.551,-79.0414,34.6,63,0,3.6,US,1689613875
111,petropavlovsk-kamchatsky,53.0452,158.6483,11.98,95,83,0.81,RU,1689613652
112,togur,58.3631,82.8265,13.82,62,21,2.73,RU,1689613875
113,vernon,50.2581,-119.2691,26.45,37,5,4.47,CA,1689613685
114,praia da vitoria,38.7333,-27.0667,22.09,75,43,2.89,PT,1689613875
115,kodiak,57.79,-152.4072,11.73,87,100,4.12,US,1689613655
116,udachny,66.4167,112.4,9.14,100,100,5.57,RU,1689613400
117,aasiaat,68.7098,-52.8699,3.17,96,100,1.73,GL,1689613613
118,fale old settlement,-9.3852,-171.2468,28.5,76,98,6.1,TK,1689613602
119,xiva,41.3783,60.3639,22.99,57,95,9.41,UZ,1689613876
120,sensuntepeque,13.8667,-88.6333,28.97,47,99,0.35,SV,1689613877
121,port elizabeth,-33.918,25.5701,16.16,82,0,3.6,ZA,1689613580
122,zambezi,-13.5432,23.1047,19.3,27,0,2.36,ZM,1689613877
123,wuchuan,21.4571,110.7659,26.63,94,100,18.85,CN,1689613740
124,carnarvon,-24.8667,113.6333,17.34,57,1,4.52,AU,1689613615
125,argo,37.6333,22.7333,33.21,33,0,3.04,GR,1689613878
126,rio verde,21.9333,-99.9833,27.75,43,47,2.7,MX,1689613878
127,bamboo flat,11.7,92.7167,27.73,85,100,8.02,IN,1689613878
128,cabedelo,-6.9811,-34.8339,29.37,74,52,6.71,BR,1689613267
129,camapua,-19.5314,-54.0439,32.04,28,1,3.22,BR,1689613879
130,hadibu,12.65,54.0333,25.71,76,5,8.59,YE,1689613879
131,guerrero negro,27.9769,-114.0611,25.32,60,38,3.81,MX,1689613634
132,mar del plata,-38.0023,-57.5575,9.49,78,75,6.69,AR,1689613360
133,reedsburg,43.5325,-90.0026,23.94,48,75,5.14,US,1689613825
134,tazacorte,28.629,-17.9293,24.54,71,40,6.69,ES,1689613365
135,seven pagodas,12.6264,80.1722,31.14,70,95,2.99,IN,1689613880
136,minas de marcona,-15.2119,-75.1103,18.05,57,30,5.98,PE,1689613442
137,labrador city,52.9463,-66.9114,20.95,88,75,2.06,CA,1689613881
138,nishinoomote,30.7333,131.0,27.36,87,19,5.06,JP,1689613881
139,larkird,35.4894,66.6641,22.92,30,0,1.86,AF,1689613881
140,xinyuan,37.3,99.0,5.87,85,76,1.4,CN,1689613881
141,mount isa,-20.7333,139.5,18.87,45,40,2.57,AU,1689613292
142,port lincoln,-34.7333,135.8667,10.68,80,0,4.53,AU,1689613603
143,kerikeri,-35.2268,173.9474,7.73,93,17,0.45,NZ,1689613882
144,yanam,16.7333,82.2167,26.04,77,97,4.93,IN,1689613882
145,dunedin,-45.8742,170.5036,13.78,43,91,0.89,NZ,1689613695
146,georgetown,5.4112,100.3354,28.96,83,20,1.03,MY,1689613494
147,mount gambier,-37.8333,140.7667,9.03,80,29,4.36,AU,1689613703
148,thika,-1.0333,37.0693,19.76,52,93,0.17,KE,1689613883
149,puerto baquerizo moreno,-0.9,-89.6,27.55,78,75,8.23,EC,1689613883
150,crane,31.3974,-102.3501,34.94,22,0,7.86,US,1689613883
151,weno,7.4515,151.8468,28.62,74,99,5.97,FM,1689613571
152,kuloy,61.0305,42.4925,22.08,58,42,2.13,RU,1689613884
153,malpica,43.3228,-8.8105,26.05,67,0,7.16,ES,1689613884
154,ulsteinvik,62.3432,5.8487,15.42,92,97,4.02,NO,1689613884
155,tual,-5.6667,132.75,26.77,76,99,8.31,ID,1689613884
156,scottburgh,-30.2867,30.7532,18.38,71,3,2.83,ZA,1689613885
157,bethel,41.3712,-73.414,31.61,60,0,3.6,US,1689613577
158,hami,42.8,93.45,33.46,15,46,13.32,CN,1689613885
159,sao joao do piaui,-8.3581,-42.2467,34.48,22,0,4.58,BR,1689613885
160,lata,40.1629,-8.3327,29.16,41,4,4.03,PT,1689613663
161,trogir,43.5125,16.2517,36.03,24,0,4.63,HR,1689613886
162,port mathurin,-19.6833,63.4167,23.5,76,62,12.82,MU,1689613581
163,kalmunai,7.4167,81.8167,28.61,70,100,2.58,LK,1689613760
164,gaillimh,53.2719,-9.0489,15.66,74,91,5.19,IE,1689613808
165,levuka,50.1834,-105.4011,21.85,49,100,7.72,CA,1689613891
166,kailua-kona,19.6406,-155.9956,24.98,80,20,2.57,US,1689613629
167,sinabang,2.4803,96.3801,26.46,82,99,2.37,ID,1689613892
168,yulinshi,38.2906,109.7494,25.1,35,2,5.82,CN,1689613892
169,montgomery,39.1501,-77.1997,32.58,63,0,2.06,US,1689613834
170,avarua,-21.2078,-159.775,19.03,94,100,3.09,CK,1689613599
171,kismayo,-0.3582,42.5454,25.09,79,48,8.14,SO,1689613893
172,lihue,21.9789,-159.3672,26.77,77,40,5.66,US,1689613609
173,kamaishi,39.2667,141.8833,23.44,89,41,2.79,JP,1689613893
174,qaqortoq,60.7167,-46.0333,10.98,81,62,1.41,GL,1689613606
175,onega,63.9061,38.1404,20.7,59,100,3.4,RU,1689613893
176,luwuk,-0.9516,122.7875,24.55,85,86,2.91,ID,1689613451
177,nova vicosa,-17.8919,-39.3719,27.6,60,2,5.0,BR,1689613894
178,klyuchi,52.2667,79.1667,20.54,54,11,2.81,RU,1689613594
179,college,64.8569,-147.8028,18.38,76,40,0.0,US,1689613605
180,altoona,40.5187,-78.3947,27.99,65,62,4.72,US,1689613808
181,ain smara,36.2674,6.5014,37.47,20,40,7.2,DZ,1689613895
182,ayorou,14.7308,0.9174,40.28,22,84,3.83,NE,1689613895
183,chibougamau,49.9168,-74.3659,22.79,64,0,4.78,CA,1689613569
184,jamestown,42.097,-79.2353,26.12,57,40,5.66,US,1689613279
185,kudat,6.8837,116.8477,26.12,86,100,2.34,MY,1689613896
186,karratha,-20.7377,116.8463,19.62,40,3,2.36,AU,1689613703
187,altamont,42.2068,-121.7372,24.32,40,0,2.06,US,1689613896
188,akrehamn,59.2667,5.1833,14.14,77,75,7.2,NO,1689613896
189,nanao,37.05,136.9667,26.27,91,67,1.04,JP,1689613897
190,jiazi,22.8779,116.067,27.48,89,100,7.22,CN,1689613897
191,yakeshi,49.2833,120.7333,17.46,82,21,1.55,CN,1689613399
192,isola di capo rizzuto,38.96,17.0933,34.55,48,0,2.31,IT,1689613899
193,malpe,13.35,74.7167,27.61,86,100,5.97,IN,1689613899
194,kapuskasing,49.4169,-82.4331,16.05,82,100,3.6,CA,1689613599
195,chengam,12.3,78.8,28.88,55,97,5.87,IN,1689613899
196,aliwal north,-30.6937,26.7114,12.6,33,3,2.67,ZA,1689613899
197,paraparaumu,-40.9167,175.0167,10.7,87,85,4.32,NZ,1689613900
198,puerto ayora,-0.7393,-90.3518,28.98,91,59,5.36,EC,1689613406
199,howrah,22.5892,88.3103,28.0,94,40,1.54,IN,1689613535
200,dakhla,23.6848,-15.958,25.01,65,0,8.75,EH,1689613319
201,ishigaki,24.3448,124.1572,28.57,82,98,8.14,JP,1689613900
202,zaragoza,41.6561,-0.8773,35.81,34,0,5.14,ES,1689613678
203,bari,41.1177,16.8512,36.25,47,0,2.06,IT,1689613901
204,st. john's,47.5649,-52.7093,30.15,66,75,5.66,CA,1689613518
205,mejit,10.2753,170.8646,27.51,81,98,4.78,MH,1689613901
206,lakatoro,-16.0999,167.4164,24.59,81,99,8.31,VU,1689613901
207,illizi,26.4833,8.4667,39.89,8,20,6.42,DZ,1689613901
208,tolanaro,-25.0319,46.9987,19.34,82,2,1.1,MG,1689613650
209,kindu,-2.95,25.95,28.14,34,8,0.53,CD,1689613902
210,hasaki,35.7333,140.8333,26.28,91,0,0.23,JP,1689613651
211,fort st. john,56.2499,-120.8529,14.94,72,100,3.6,CA,1689613888
212,selfoss,63.9331,-20.9971,17.25,46,95,4.6,IS,1689613902
213,shalqar,47.8333,59.6,24.14,41,100,4.99,KZ,1689613903
214,vorgashor,67.5833,63.95,12.79,86,21,3.0,RU,1689613569
215,jwaneng,-24.6004,24.7303,15.4,27,0,4.25,BW,1689613903
216,zhoushan,30.0108,122.2047,26.27,95,85,3.6,CN,1689613630
217,manturovo,58.3353,44.7619,20.04,75,53,2.04,RU,1689613904
218,talnakh,69.4865,88.3972,11.23,86,99,5.87,RU,1689613575
219,quelimane,-17.8786,36.8883,18.84,71,0,2.03,MZ,1689613618
220,narvik,68.4384,17.4272,18.54,89,97,1.34,NO,1689613904
221,tokonou,9.65,-9.7833,25.79,87,98,0.84,GN,1689613905
222,papatowai,-46.5619,169.4708,10.58,87,100,9.21,NZ,1689613726
223,piton saint-leu,-21.2196,55.3151,21.04,83,100,2.06,RE,1689613905
224,shitanjing,39.2342,106.3439,25.76,31,5,4.99,CN,1689613905
225,inyati,-19.6756,28.8469,12.73,27,1,3.51,ZW,1689613905
226,mount pearl,47.5166,-52.7813,29.69,60,94,3.13,CA,1689613693
227,hamilton,39.1834,-84.5333,28.82,71,20,5.14,US,1689613863
228,kruisfontein,-34.0033,24.7314,12.82,90,49,1.78,ZA,1689613667
229,kudahuvadhoo,2.6708,72.8944,28.67,74,35,3.69,MV,1689613382
230,jiayuguan,39.8167,98.3,27.32,17,0,3.33,CN,1689613858
231,vorkuta,67.5,64.0,13.13,87,15,3.0,RU,1689613906
232,kindia,10.0569,-12.8658,23.14,93,99,1.72,GN,1689613907
233,pisco,-13.7,-76.2167,21.03,64,100,3.09,PE,1689613907
234,sarzana,44.1115,9.9586,29.73,64,13,2.0,IT,1689613907
235,flying fish cove,-10.4217,105.6791,24.82,83,75,4.63,CX,1689613592
236,keflavik,64.0049,-22.5624,12.24,71,0,7.2,IS,1689613706
237,nema,57.5067,50.5011,19.21,74,59,2.77,RU,1689613908
238,ola,59.5833,151.2833,11.74,95,90,1.62,RU,1689613691
239,al kharijah,25.4514,30.5464,37.02,10,0,3.54,EG,1689613908
240,revda,56.801,59.9303,15.15,97,87,2.29,RU,1689613908
241,ulladulla,-35.35,150.4667,10.93,81,0,2.68,AU,1689613908
242,hincesti,46.8258,28.5936,32.76,34,0,1.83,MD,1689613909
243,savanna-la-mar,18.219,-78.1332,31.07,56,55,2.26,JM,1689613909
244,parun,35.4207,70.9221,17.77,58,8,2.7,AF,1689613909
245,callao,-12.0667,-77.15,24.84,60,75,3.09,PE,1689613909
246,saudarkrokur,65.7461,-19.6394,9.08,71,50,4.41,IS,1689613430
247,colonia,50.9333,6.95,25.32,46,0,6.17,DE,1689613597
248,susuman,62.7833,148.1667,13.98,60,94,0.84,RU,1689613910
249,essaouira,31.5125,-9.77,27.72,65,12,4.12,MA,1689613910
250,inhambane,-23.865,35.3833,19.07,64,17,2.58,MZ,1689613910
251,cabo san lucas,22.8909,-109.9124,36.61,58,40,5.14,MX,1689613441
252,afaahiti,-17.75,-149.2833,19.93,71,31,4.34,PF,1689613714
253,fort bragg,35.139,-79.006,33.28,60,0,1.54,US,1689613911
254,sarkisla,39.3519,36.4098,16.88,52,0,4.04,TR,1689613769
255,krasnogorskoye,52.2953,86.1979,14.82,85,7,1.18,RU,1689613911
256,kantunilkin,21.0917,-87.45,37.02,34,90,3.13,MX,1689613912
257,balabac,7.9868,117.0645,27.4,79,89,2.86,PH,1689613912
258,katsuren-haebaru,26.3369,127.8719,27.01,83,96,6.35,JP,1689613912
259,birobidzhan,48.8,132.95,15.4,97,26,0.52,RU,1689613912
260,kiruna,67.8557,20.2251,14.51,77,0,4.12,SE,1689613912
261,anadyr,64.75,177.4833,15.28,82,0,4.0,RU,1689613573
262,san miguel,13.4833,-88.1833,33.78,53,20,1.54,SV,1689613689
263,guiuan,11.0333,125.7247,28.71,76,100,4.52,PH,1689613381
264,paradip garh,20.3167,86.6167,28.18,83,39,3.73,IN,1689613913
265,nantucket,41.2835,-70.0995,29.08,94,75,3.6,US,1689613913
266,nainwa,25.7667,75.85,31.78,65,100,2.66,IN,1689613724
267,tutoia,-2.7619,-42.2744,29.18,63,3,5.44,BR,1689613899
268,douz,33.4663,9.0203,43.76,11,0,6.87,TN,1689613914
269,balqash,46.8481,74.995,26.41,35,60,0.66,KZ,1689613914
270,baden,47.9974,16.233,32.31,50,3,2.34,AT,1689613915
271,mumbwa,-14.9783,27.0619,17.03,37,0,2.41,ZM,1689613915
272,zuni pueblo,35.0725,-108.8506,33.35,10,81,2.25,US,1689613915
273,padang,-0.9492,100.3543,25.03,88,96,1.33,ID,1689613628
274,hancheng,32.5186,112.3522,24.37,71,12,0.33,CN,1689613915
275,bandar lampung,-5.4254,105.258,22.93,94,60,0.61,ID,1689613916
276,al qusayr,34.5091,36.5798,28.44,33,0,3.3,SY,1689613916
277,khalis,33.82,44.5264,38.82,10,0,5.11,IQ,1689613916
278,tura,25.5198,90.2201,23.76,97,40,1.09,IN,1689613743
279,takoradi,4.8845,-1.7554,25.31,86,81,6.2,GH,1689613916
280,tralee,52.2704,-9.7026,17.14,67,40,4.12,IE,1689613861
281,hauterive,46.0901,3.4459,27.42,42,18,2.33,FR,1689613917
282,kampong chhnang,12.1667,104.55,25.54,86,100,1.74,KH,1689613917
283,broken hill,-31.95,141.4333,10.44,58,4,3.23,AU,1689613917
284,nadym,65.5333,72.5167,16.78,78,100,8.47,RU,1689613918
285,birao,10.2849,22.7882,30.5,49,52,1.46,CF,1689613918
286,santa terezinha,-29.9002,-50.0904,13.65,59,0,6.11,BR,1689613918
287,itamaraca,-7.7478,-34.8256,28.03,67,9,5.56,BR,1689613918
288,charlottetown,46.2352,-63.1267,27.16,83,100,8.23,CA,1689613329
289,derbent,42.0678,48.2899,24.24,52,96,0.74,RU,1689613919
290,el calafate,-50.3408,-72.2768,-1.69,73,2,1.47,AR,1689613694
291,ochakiv,46.6128,31.5498,24.55,64,0,5.13,UA,1689613919
292,vadso,70.0744,29.7487,21.49,72,0,1.03,NO,1689613725
293,amparafaravola,-17.5833,48.2167,17.46,86,66,2.52,MG,1689613920
294,ylitornio,66.3089,23.6773,16.84,72,98,4.88,FI,1689613920
295,daru,-9.0763,143.2092,24.46,86,93,5.77,PG,1689613920
296,acajutla,13.5928,-89.8275,31.81,54,99,2.19,SV,1689613920
297,punta arenas,-53.15,-70.9167,4.06,77,75,3.09,CL,1689613571
298,isafjordur,66.0755,-23.124,10.02,76,40,4.12,IS,1689613596
299,guarapari,-20.6667,-40.4975,29.94,61,9,2.71,BR,1689613921
300,lubuklinggau,-3.3,102.8667,22.92,97,98,0.6,ID,1689613922
301,cassilandia,-19.1133,-51.7342,32.15,27,0,1.51,BR,1689613922
302,qujing,25.4833,103.7833,13.27,90,18,1.64,CN,1689613751
303,hithadhoo,-0.6,73.0833,28.2,71,100,1.45,MV,1689613722
304,tazovsky,67.4667,78.7,13.64,83,94,3.36,RU,1689613605
305,saint-joseph,-21.3667,55.6167,21.21,85,26,5.47,RE,1689613923
306,claveria,18.6074,121.0832,26.92,85,100,1.22,PH,1689613924
307,ambon,-3.6954,128.1814,27.91,61,40,4.12,ID,1689613079
308,mwene-ditu,-7.0,23.45,25.55,29,0,1.33,CD,1689613376
309,egilsstadir,65.2653,-14.3948,11.95,58,75,2.57,IS,1689613924
310,plainview,40.7765,-73.4673,32.66,69,40,1.34,US,1689613694
311,fisterra,42.9049,-9.2629,27.08,73,0,10.78,ES,1689613925
312,shantou,23.3681,116.7148,25.74,96,100,3.05,CN,1689613930
313,sandnessjoen,66.0217,12.6316,15.29,82,75,7.2,NO,1689613930
314,sulejow,51.3544,19.8854,21.32,73,86,3.66,PL,1689613930
315,mandalgovi,45.7625,106.2708,23.19,38,61,5.0,MN,1689613930
316,tinghir,31.5157,-5.5343,34.98,6,71,4.34,MA,1689613931
317,rikaze,29.25,88.8833,14.82,62,56,1.31,CN,1689613931
318,choibalsan,48.0667,114.5,22.3,39,14,5.29,MN,1689613931
319,wietze,52.65,9.8333,21.87,67,20,4.63,DE,1689613931
320,arraial do cabo,-22.9661,-42.0278,23.92,73,20,4.12,BR,1689613713
321,al burayqah,30.4062,19.5739,27.62,70,0,9.26,LY,1689613932
322,rawson,-43.3002,-65.1023,5.68,31,0,3.01,AR,1689613932
323,suva,-18.1416,178.4415,20.71,94,75,3.6,FJ,1689613932
324,hammerfest,70.6634,23.6821,15.25,82,75,5.14,NO,1689613933
325,san andres,12.5847,-81.7006,26.01,100,40,5.14,CO,1689613760
326,xiazhuang,34.9161,118.6389,22.75,96,19,3.25,CN,1689613933
327,lerwick,60.1545,-1.1494,12.0,81,96,7.87,GB,1689613933
328,touros,-5.1989,-35.4608,28.3,63,4,7.76,BR,1689613933
329,east ballina,-28.8667,153.5833,13.22,89,83,1.38,AU,1689613934
330,nurota,40.5614,65.6886,31.52,15,0,2.48,UZ,1689613393
331,progreso,21.2833,-89.6667,35.06,60,45,5.71,MX,1689613934
332,zima,53.9202,102.0442,15.07,87,81,3.28,RU,1689613934
333,mantua,45.1667,10.7833,35.34,54,0,1.69,IT,1689613934
334,hwange,-18.3693,26.5019,17.97,35,3,0.62,ZW,1689613935
335,zapala,-38.8992,-70.0544,0.98,67,88,3.13,AR,1689613935
336,san juan bautista,-14.0108,-75.7358,25.39,39,6,1.77,PE,1689613935
337,conduaga,8.862,117.4893,27.07,76,99,2.46,PH,1689613935
338,kavieng,-2.5744,150.7967,27.63,78,100,1.84,PG,1689613745
339,floro,61.5996,5.0328,13.04,88,75,7.2,NO,1689613936
340,codrington,-38.2667,141.9667,5.64,84,0,6.37,AU,1689613632
341,gaalkacyo,6.7697,47.4308,31.05,32,51,7.68,SO,1689613936
342,val-d'or,48.1002,-77.7828,16.05,88,100,3.09,CA,1689613918
343,devonport,-41.1667,146.35,11.96,85,56,6.29,AU,1689613936
344,dudinka,69.4058,86.1778,12.57,96,88,4.47,RU,1689613738
345,santa ana de yacuma,-13.75,-65.4333,33.74,37,2,1.27,BO,1689613937
346,thiers,45.8333,3.5,27.18,47,21,2.83,FR,1689613937
347,port blair,11.6667,92.75,27.72,85,100,8.09,IN,1689613937
348,mili,6.0815,171.735,27.84,78,95,5.93,MH,1689613938
349,doaba,33.4244,70.7364,32.13,52,1,2.04,PK,1689613938
350,golyshmanovo,56.3979,68.3728,17.55,91,91,4.22,RU,1689613938
351,salalah,17.0151,54.0924,27.05,94,100,3.6,OM,1689613938
352,alice springs,-23.7,133.8833,8.75,76,100,0.0,AU,1689613938
353,al muwayh,22.4333,41.7583,36.27,8,29,3.96,SA,1689613407
354,andovoranto,-18.95,49.1,21.63,88,82,1.44,MG,1689613939
355,portland,45.5234,-122.6762,22.1,64,75,2.24,US,1689613716
356,vytegra,61.0064,36.4481,21.27,66,100,3.46,RU,1689613939
357,lazaro cardenas,17.9583,-102.2,29.12,70,95,1.11,MX,1689613939
358,stephenville,32.2207,-98.2023,37.32,30,0,4.63,US,1689613940
359,yigo village,13.5361,144.8886,27.62,83,40,2.06,GU,1689613940
360,umba,66.6871,34.3429,16.33,81,58,3.74,RU,1689613940
361,korla,41.7597,86.1469,32.94,22,78,9.35,CN,1689613940
362,puerto maldonado,-12.6,-69.1833,30.22,62,75,1.03,PE,1689613941
363,daxi,24.8837,121.2904,29.33,87,100,1.28,TW,1689613941
364,lagoa,39.05,-27.9833,19.66,67,75,3.04,PT,1689613941
365,ljusdal,61.8288,16.0913,16.51,80,97,4.95,SE,1689613942
366,gadzhiyevo,69.2551,33.3362,19.59,63,82,4.8,RU,1689613671
367,namibe,-15.1961,12.1522,21.7,66,0,3.17,AO,1689613669
368,dalandzadgad,43.5708,104.425,28.12,18,53,6.79,MN,1689613367
369,tromso,69.6496,18.957,14.01,88,75,7.2,NO,1689613398
370,ketchikan,55.3422,-131.6461,16.26,82,100,4.12,US,1689613943
371,hirara,24.8,125.2833,28.58,81,99,8.48,JP,1689613943
372,diego de almagro,-26.3667,-70.05,24.84,11,0,3.64,CL,1689613943
373,vylkove,45.4021,29.586,26.68,46,1,5.43,UA,1689613943
374,cidreira,-30.1811,-50.2056,12.81,57,0,5.88,BR,1689613686
375,corinto,37.9407,22.9573,33.27,34,0,2.8,GR,1689613944
376,taranagar,28.6709,75.0351,34.17,52,92,4.43,IN,1689613944
377,kiunga,-6.1219,141.2906,22.57,95,81,0.83,PG,1689613741
378,daoukro,7.0591,-3.9631,25.85,92,100,1.37,CI,1689613944
379,awjilah,29.1081,21.2869,37.89,17,0,5.97,LY,1689613945
380,esperanza,19.5847,-70.9849,33.32,35,19,6.2,DO,1689613427
381,meulaboh,4.1363,96.1285,25.17,87,89,1.65,ID,1689613945
382,kununurra,-15.7667,128.7333,16.99,63,10,1.54,AU,1689613945
383,vilyuchinsk,52.9306,158.4028,13.15,94,81,0.43,RU,1689613575
384,cranbrook,49.4999,-115.7688,25.91,31,75,2.57,CA,1689613873
385,smithers,54.7804,-127.1743,14.18,88,75,1.54,CA,1689613452
386,tenno,39.9,139.9667,23.21,96,64,4.11,JP,1689613946
387,enewetak,11.3474,162.3373,28.05,77,44,5.27,MH,1689613610
388,valenca,-13.3703,-39.0731,27.66,56,73,3.02,BR,1689613947
389,ascension,30.2169,-90.9001,32.84,71,75,3.09,US,1689613947
390,bahia de caraquez,-0.6,-80.4167,29.1,74,98,1.69,EC,1689613947
391,remire-montjoly,4.9167,-52.2667,31.02,66,75,4.12,GF,1689613748
392,mahina,-17.5065,-149.489,20.87,68,0,2.06,PF,1689613243
393,new haven,41.4001,-72.9329,31.45,61,0,5.14,US,1689613944
394,twon-brass,4.3151,6.2418,26.45,82,84,6.21,NG,1689613948
395,wulingyuan,29.3494,110.5441,22.17,91,7,1.31,CN,1689613948
396,broome,42.2506,-75.833,28.9,72,20,5.66,US,1689613949
397,ghat,24.9647,10.1728,38.08,9,25,5.45,LY,1689613949
398,megion,61.0296,76.1136,15.01,55,68,3.52,RU,1689613949
399,goribidnur,13.6111,77.5167,23.82,75,99,5.71,IN,1689613950
400,zheleznodorozhnyy,55.7503,38.0042,26.29,56,11,1.45,RU,1689613950
401,new norfolk,-42.7826,147.0587,11.72,60,68,3.96,AU,1689613950
402,isiro,2.7739,27.616,25.02,68,68,1.28,CD,1689613950
403,rio grande,-32.035,-52.0986,12.06,57,4,6.36,BR,1689613950
404,kalianget,-7.05,113.9333,26.04,77,10,7.23,ID,1689613951
405,novoaleksandrovsk,45.4948,41.2207,20.88,59,56,2.6,RU,1689613951
406,mugia,43.1041,-9.2179,27.17,75,0,9.83,ES,1689613951
407,tsarevo,42.1667,27.85,24.37,64,0,3.17,BG,1689613951
408,bridgewater,44.3835,-64.5155,20.82,94,100,8.75,CA,1689613951
409,asilah,35.465,-6.0348,31.98,64,3,3.59,MA,1689613952
410,mujiayingzi,42.1167,118.7833,22.05,50,4,2.95,CN,1689613952
411,sena madureira,-9.0656,-68.6569,35.81,35,13,1.24,BR,1689613952
412,birjand,32.8663,59.2211,32.26,12,0,4.12,IR,1689613428
413,torghay,49.6339,63.4981,23.98,46,100,6.32,KZ,1689613952
414,santa ana,33.7456,-117.8678,32.74,73,75,4.63,US,1689613936
415,tagta,41.6504,59.9164,24.08,55,86,8.87,TM,1689613953
416,zaozersk,69.4005,32.4476,18.89,69,84,5.68,RU,1689613755
417,geraldton,-28.7667,114.6,8.23,81,2,2.57,AU,1689613912
418,buckie,57.6757,-2.9624,15.88,87,91,6.65,GB,1689613954
419,merizo village,13.2658,144.6691,28.31,81,92,5.09,GU,1689613954
420,bengkulu,-3.8004,102.2655,24.69,90,80,2.45,ID,1689613954
421,muroto-misakicho,33.2833,134.15,26.57,90,6,3.58,JP,1689613959
422,brookings,44.3114,-96.7984,20.66,56,0,6.17,US,1689613259
423,kenai,60.5544,-151.2583,13.05,98,100,6.17,US,1689613960
424,kabba,7.8287,6.0731,26.62,83,62,1.81,NG,1689613960
425,yazihan,38.5947,38.18,27.15,22,0,4.63,TR,1689613960
426,altay,47.8667,88.1167,19.48,38,20,2.34,CN,1689613960
427,zhosaly,45.4878,64.0781,28.78,27,35,15.41,KZ,1689613961
428,la libertad,-2.2333,-80.9,28.81,74,20,4.85,EC,1689613961
429,veraval,20.9,70.3667,28.28,83,26,6.78,IN,1689613961
430,rongelap,11.1635,166.8941,27.91,80,35,5.66,MH,1689613961
431,rabo de peixe,37.8,-25.5833,20.73,64,75,1.54,PT,1689613961
432,kristiansund,63.1115,7.732,14.36,82,75,7.2,NO,1689613418
433,yung shue wan,22.2333,114.1167,28.75,87,100,12.16,HK,1689613369
434,mitu,1.1983,-70.1733,30.7,61,30,1.5,CO,1689613962
435,ploudalmezeau,48.5333,-4.65,20.21,56,40,3.09,FR,1689613962
436,gharyan,32.1722,13.0203,32.45,16,0,7.46,LY,1689613962
437,vuktyl,63.8567,57.3094,19.81,68,62,0.51,RU,1689613963
438,rabigh,22.7986,39.0349,32.48,54,4,4.08,SA,1689613963
439,dolores hidalgo cuna de la independencia nacional,21.1561,-100.9308,24.32,38,9,5.0,MX,1689613963
440,nuku'alofa,-21.1333,-175.2,20.19,68,20,5.14,TO,1689613963
441,port saint john's,-31.6229,29.5448,19.57,59,27,2.29,ZA,1689613379
442,bandarbeyla,9.4942,50.8122,24.14,82,35,14.21,SO,1689613566
443,nagato,34.3833,131.2,24.78,91,83,1.1,JP,1689613964
444,nabha,30.3747,76.1486,31.74,63,62,2.76,IN,1689613964
445,kralendijk,12.15,-68.2667,30.99,70,75,5.66,BQ,1689613965
446,kargasok,59.0556,80.8572,15.17,60,8,2.8,RU,1689613965
447,fortuna,40.5982,-124.1573,17.97,87,100,4.12,US,1689613756
448,laguna,38.421,-121.4238,33.38,42,0,4.63,US,1689613966
449,butha-buthe,-28.8333,28.5,3.72,46,0,0.82,LS,1689613966
450,trevelin,-43.0858,-71.4639,0.71,78,20,1.06,AR,1689613966
451,troitsko-pechorsk,62.7084,56.1964,20.52,58,87,0.72,RU,1689613966
452,kone,-21.0595,164.8658,19.53,80,71,2.25,NC,1689613658
453,merlo,-32.3429,-65.014,7.64,63,92,2.13,AR,1689613967
454,muskegon,43.3,-86.1334,22.93,62,20,4.63,US,1689613753
455,waingapu,-9.6567,120.2641,22.8,85,8,4.72,ID,1689613750
456,grand rapids,42.9634,-85.6681,24.23,56,20,7.72,US,1689613803
457,havre,49.5833,0.3333,21.3,77,7,4.63,FR,1689613968
458,vanimo,-2.6741,141.3028,25.2,88,47,0.44,PG,1689613369
459,cockburn town,21.4612,-71.1419,28.56,83,99,8.1,TC,1689613712
460,misratah,32.3754,15.0925,29.79,61,0,5.55,LY,1689613968
461,kill devil hills,36.0307,-75.676,33.0,83,75,4.12,US,1689613885
462,nueva gerona,21.8833,-82.8,32.32,59,45,5.65,CU,1689613969
463,severo-yeniseyskiy,60.3725,93.0408,8.82,70,4,0.64,RU,1689613969
464,constantia,44.1833,28.65,28.38,61,0,6.08,RO,1689613499
465,qoryooley,1.7878,44.53,24.26,82,15,7.47,SO,1689613371
466,sao jose da coroa grande,-8.8978,-35.1478,26.0,74,29,5.77,BR,1689613380
467,antalaha,-14.9003,50.2788,22.03,84,38,3.73,MG,1689613970
468,natal,-5.795,-35.2094,28.36,69,40,5.66,BR,1689613831
469,palmer,42.1584,-72.3287,30.9,54,75,3.09,US,1689613960
470,guiratinga,-16.3494,-53.7583,34.55,20,4,2.08,BR,1689613970
471,talalayivka,50.9578,31.9209,25.75,60,49,1.24,UA,1689613970
472,stuttgart,48.7823,9.177,27.79,41,0,6.17,DE,1689613971
473,upper grand lagoon,30.1633,-85.7408,33.37,68,79,1.79,US,1689613971
474,hassi messaoud,31.6804,6.0729,43.92,5,5,3.09,DZ,1689613971
475,rakovnik,50.1037,13.7334,27.79,29,11,6.66,CZ,1689613971
476,burang,30.25,81.1667,13.04,76,100,2.01,CN,1689613150
477,dolisie,-4.1997,12.6739,27.9,53,45,3.74,CG,1689613972
478,leshan,29.5623,103.7639,23.41,93,67,0.78,CN,1689613851
479,east end,34.5507,-92.341,33.19,73,2,2.87,US,1689613972
480,tanout,14.9709,8.8879,38.76,17,22,1.32,NE,1689613972
481,malvan,16.0667,73.4667,26.86,86,100,7.64,IN,1689613973
482,saint-pierre,-21.3393,55.4781,21.82,83,100,2.06,RE,1689613973
483,dryden,49.7833,-92.7503,15.16,82,100,2.57,CA,1689613639
484,xinmin,41.9908,122.8253,21.02,81,12,1.93,CN,1689613973
485,mizdah,31.4451,12.9801,36.71,11,0,8.95,LY,1689613691
486,bazarak,35.3129,69.5152,20.58,30,0,4.82,AF,1689613974
487,haiku-pauwela,20.9219,-156.3051,25.02,74,20,4.63,US,1689613723
488,dongsheng,39.8161,109.9776,23.09,35,2,4.93,CN,1689613974
489,at-bashi,41.1702,75.8106,15.93,70,26,1.63,KG,1689613974
490,sar-e pul,35.8333,66.1667,23.1,23,0,1.96,AF,1689613974
491,nemuro,43.3236,145.575,13.84,97,100,2.24,JP,1689613678
492,opuwo,-18.0607,13.84,20.0,21,0,3.68,NA,1689613975
493,hachinohe,40.5,141.5,22.92,87,40,3.91,JP,1689613975
494,pecos,31.4229,-103.4932,36.05,20,0,0.0,US,1689613975
495,lander,42.833,-108.7307,27.84,41,0,1.54,US,1689613394
496,vila franca do campo,37.7167,-25.4333,21.23,75,90,1.76,PT,1689613976
497,coquimbo,-29.9533,-71.3436,14.85,77,20,5.14,CL,1689613631
498,toliara,-23.35,43.6667,20.2,77,0,5.34,MG,1689613976
499,bathsheba,13.2167,-59.5167,29.4,73,49,6.6,BB,1689613976
500,brokopondo,4.75,-55.1667,29.09,62,49,1.34,SR,1689613644
501,cobija,-11.0267,-68.7692,36.01,30,14,0.72,BO,1689613976
502,yamada,39.4667,141.95,23.11,90,20,2.02,JP,1689613977
503,sainyabuli,19.25,101.75,22.45,96,100,1.0,LA,1689613977
504,piti village,13.4626,144.6933,28.49,83,20,2.06,GU,1689613977
505,homer,59.6425,-151.5483,13.91,98,75,0.0,US,1689613977
506,plettenberg bay,-34.0527,23.3716,14.31,83,53,1.46,ZA,1689613977
507,villa maria grande,-31.6656,-59.9018,12.65,38,0,3.44,AR,1689613978
508,balakhta,55.38,91.6,13.92,92,9,0.84,RU,1689613978
509,kyren,51.6828,102.1408,15.69,94,99,0.64,RU,1689613978
510,shuangjiang,26.1547,109.7138,21.94,95,100,2.19,CN,1689613979
511,kenora,49.8167,-94.4337,16.54,82,100,4.47,CA,1689613979
512,ancud,-41.8697,-73.8203,6.64,62,57,3.39,CL,1689613979
513,byron bay,-28.65,153.6167,13.17,86,94,0.32,AU,1689613408
514,monrovia,6.3005,-10.7969,26.22,81,98,4.26,LR,1689613979
515,koudougou,12.25,-2.3667,35.58,35,75,2.3,BF,1689613980
516,bahce,37.1972,36.5766,27.96,24,0,1.6,TR,1689613980
517,mana,5.6592,-53.7767,28.86,69,96,3.0,GF,1689613980
518,walvis bay,-22.9575,14.5053,23.38,29,0,5.82,NA,1689613980
519,al kharj,24.155,47.3346,40.32,6,23,4.75,SA,1689613980
520,kittila,67.6647,24.8936,18.12,68,20,5.66,FI,1689613981
521,igarka,67.4667,86.5833,13.63,95,88,5.61,RU,1689613384
522,la sarre,48.8002,-79.1996,20.43,57,85,6.29,CA,1689613981
523,leava,-14.3,-178.1667,26.46,82,96,10.65,WF,1689613982
524,louga,58.7372,29.8453,22.07,48,19,3.22,RU,1689613983
525,fauske,67.2588,15.3918,14.97,92,88,2.48,NO,1689613983
526,collie,-33.3667,116.15,9.82,84,96,2.65,AU,1689613983
527,yuzhno-kurilsk,44.0306,145.8556,12.51,97,100,1.17,RU,1689613661
528,ad darb,17.7229,42.2526,36.57,26,69,6.56,SA,1689613984
529,margate,51.3813,1.3862,21.6,59,88,4.02,GB,1689613697
530,ippy,6.2679,21.2247,25.21,80,57,1.54,CF,1689613984
531,whakatane,-37.9585,176.9854,9.87,99,3,2.16,NZ,1689613984
532,dzilam gonzalez,21.2833,-88.9333,35.04,44,53,3.18,MX,1689613985
533,zlatograd,41.3833,25.1,27.8,40,2,1.55,BG,1689613985
534,queenstown,-31.8976,26.8753,13.4,33,30,3.09,ZA,1689613613
535,hovd,48.0056,91.6419,20.92,37,83,1.54,MN,1689613985
536,namsos,64.4662,11.4957,15.95,67,75,3.6,NO,1689613986
537,coahuayana de hidalgo,18.7,-103.6583,28.14,79,89,0.68,MX,1689613732
538,cannonvale,-20.2833,148.7,18.66,88,74,7.22,AU,1689613986
539,poyarkovo,49.6,128.6833,17.27,85,40,2.3,RU,1689613986
540,lijiang,26.8688,100.2207,15.7,83,97,0.93,CN,1689613987
541,coron,11.9986,120.2043,25.78,88,87,2.21,PH,1689613987
542,san jose de guanipa,8.8872,-64.1651,32.26,48,26,4.85,VE,1689613987
543,acapulco de juarez,16.8634,-99.8901,24.9,94,100,1.03,MX,1689613401
544,chernyshevskiy,63.0128,112.4714,9.71,92,64,4.15,RU,1689613988
545,stantsiya novyy afon,43.0806,40.8383,21.89,73,20,1.19,GE,1689613988
546,lionel town,17.8101,-77.2406,32.94,54,14,5.92,JM,1689613988
547,ust'-ordynskiy,52.805,104.7508,15.42,82,97,1.63,RU,1689613989
548,augusto correa,-1.0217,-46.635,28.78,68,12,3.33,BR,1689613989
549,canmore,51.0834,-115.3521,23.7,37,19,2.57,CA,1689613989
550,ar rutbah,33.0381,40.2848,34.79,12,0,4.87,IQ,1689613990
551,petrovsk,52.3064,45.3917,17.03,81,34,3.4,RU,1689613990
552,kirakira,-10.4544,161.9205,25.5,86,100,2.01,SB,1689613990
553,papao,-17.75,-149.55,20.82,67,25,4.26,PF,1689613990
554,mirpur sakro,24.5474,67.6277,29.75,71,74,7.57,PK,1689613991
555,hurricane,37.1753,-113.2899,40.19,13,7,2.52,US,1689613991
556,ikongo,-21.8833,47.4333,18.33,98,44,0.97,MG,1689613991
557,south venice,27.0531,-82.4243,33.99,76,20,4.02,US,1689613992
558,palikir - national government center,6.9248,158.1611,25.41,94,75,0.0,FM,1689613992
559,jayapura,-2.5333,140.7,24.66,92,51,1.26,ID,1689613442
560,lajinha,-20.1514,-41.6228,29.23,36,1,2.25,BR,1689613992
561,rumonge,-3.9736,29.4386,23.86,52,98,1.64,BI,1689613992
562,'alaqahdari dishu,30.4374,63.313,37.04,7,0,2.12,AF,1689613993
563,dedza,-14.3779,34.3332,11.72,48,2,1.37,MW,1689613993
564,barra de santo antonio,-9.4047,-35.5072,26.6,76,31,5.5,BR,1689613893
565,trapani,37.8333,12.6667,37.93,31,0,2.57,IT,1689613993
566,bei'an,24.5399,109.533,26.08,77,100,8.24,CN,1689613994
567,chake chake,-5.2459,39.7666,24.53,77,5,6.46,TZ,1689613994
568,klaksvik,62.2266,-6.589,9.51,83,100,11.73,FO,1689613994
569,nuuk,64.1835,-51.7216,9.34,93,100,11.32,GL,1689613610
570,al khums,32.6486,14.2619,29.48,61,0,4.27,LY,1689613994
571,taltal,-25.4,-70.4833,18.86,66,4,2.84,CL,1689613698
572,metkovic,43.0542,17.6483,36.26,53,0,1.36,HR,1689613995
573,anapolis,-16.3267,-48.9528,30.26,39,75,2.57,BR,1689613995
574,newman,37.3138,-121.0208,33.36,20,62,0.35,US,1689613446
575,yangambi,0.8102,24.4336,27.35,57,79,1.0,CD,1689613996
576,la'ie,21.6477,-157.9253,26.98,79,38,1.34,US,1689613711
577,happy valley-goose bay,53.3168,-60.3315,20.17,94,100,3.09,CA,1689613741
